{"city": "上海", "img": "http://img01.zhangtu.com/pic/201509/01/55e56c57e2f26670_t_copy.jpg@1e_200w_140h_1c_0i_1o_75Q_1x.jpg", "title": "上海锦江乐园", "url": "http://www.zhangtu.com/shanghai/566a6dc948c090f44989153.htm", "scenicSpot": "飞椅 摩托过山车 摩托迪士高                       ", "location": "01号", "ticket": "含2个游乐项目，上海大转盘、火山影剧院、韩国4D须另行购票）100.00元（含6个游乐项目，上海大转盘、火山影剧院、韩国4D须另行购票）"}
{"city": "上海", "img": "http://img01.zhangtu.com/pic/201603/25/56f4b00e427472959744899_t_copy.jpg@1e_200w_140h_1c_0i_1o_75Q_1x.jpg", "title": "上海宋庆龄故居纪念馆", "url": "http://www.zhangtu.com/shanghai/566a6dc98c0db3q60405896.htm", "scenicSpot": " 上海宋庆龄故居(北门) 上海宋庆龄故居售票处                       ", "location": "1843号(淮海中路余庆路)", "ticket": ""}
{"city": "上海", "img": "http://img01.zhangtu.com/pic/201604/12/570cbb22c9b9e5f86472802_t_copy.jpg@1e_200w_140h_1c_0i_1o_75Q_1x.jpg", "title": "上海野生动物园", "url": "http://www.zhangtu.com/shanghai/566a6dc9422d50o55328519.htm", "scenicSpot": "野生动物园袋鼠区 狐猴岛                       ", "location": "南六公路178号", "ticket": ""}
{"url": "http://www.zhangtu.com/shanghai/58355d83188f74842133836.htm", "city": "上海", "location": "7号(近廊下生态园)", "img": "", "title": "上海金山农村新天地"}
{"url": "http://www.zhangtu.com/shanghai/58355c9fa76e26e28439974.htm", "city": "上海", "location": "", "img": "", "title": "上海多伦现代美术馆"}
{"city": "上海", "img": "http://img01.zhangtu.com/pic/201604/12/570c54dc2bc090151738484_t_copy.jpg@1e_200w_140h_1c_0i_1o_75Q_1x.jpg", "title": "上海海湾国家森林公园", "url": "http://www.zhangtu.com/shanghai/566a6dc9525227x69255396.htm", "scenicSpot": "                   ", "location": "7号", "ticket": ""}
{"city": "上海", "img": "http://img01.zhangtu.com/pic/201604/11/570b70d2a86f34f26924414_t_copy.jpg@1e_200w_140h_1c_0i_1o_75Q_1x.jpg", "title": "上海徐家汇景区", "url": "http://www.zhangtu.com/shanghai/566a6dc98f8c12990812976.htm", "location": "号(天平路宛平路间)", "ticket": ""}
{"city": "上海", "img": "http://img01.zhangtu.com/pic/201604/12/570c8bf54b9266201470891_t_copy.jpg@1e_200w_140h_1c_0i_1o_75Q_1x.jpg", "title": "上海金茂大厦88层观光厅", "url": "http://www.zhangtu.com/shanghai/566a6dc9600530w74326858.htm", "location": "金茂大厦", "ticket": ""}
{"url": "http://www.zhangtu.com/shanghai/58355c65e03027729396075.htm", "city": "上海", "location": "", "img": "", "title": "上海船厂滨江绿地"}
{"url": "http://www.zhangtu.com/shanghai/58355c9976a8e2602563360.htm", "city": "上海", "location": "0号", "img": "", "title": "上海戏剧专科学校旧址"}
{"city": "上海", "img": "http://img01.zhangtu.com/pic/201603/31/56fcf422396081o03407974_t_copy.jpeg@1e_200w_140h_1c_0i_1o_75Q_1x.jpg", "title": "上海环球金融中心观光厅", "url": "http://www.zhangtu.com/shanghai/566a6dc95ae140b32661228.htm", "location": "道10号环球金融中心94-100楼（近东泰路会议中心门口，须先与客服预约，自行前去恕不接待）", "ticket": ""}
{"url": "http://www.zhangtu.com/shanghai/566a6dc978cd81x16208944.htm", "city": "上海", "location": "", "img": "http://img01.zhangtu.com/pic/201604/18/5713d076c62126053441668_t_copy.jpg@1e_200w_140h_1c_0i_1o_75Q_1x.jpg", "title": "上海汽车博览公园"}
{"city": "上海", "img": "http://img01.zhangtu.com/pic/201612/22/585bbb6f24a949w27378470_1406.jpg@1e_200w_140h_1c_0i_1o_75Q_1x.jpg", "title": "上海滨海森林公园", "url": "http://www.zhangtu.com/shanghai/566a6dc97d6087g89984040.htm", "location": "6号", "ticket": ""}
{"city": "上海", "img": "", "title": "上海之根雪浪湖度假村", "url": "http://www.zhangtu.com/shanghai/58355def078261o94120274.htm", "location": "99弄100号", "ticket": ""}
{"url": "http://www.zhangtu.com/shanghai/58355e189e9169g95387303.htm", "city": "上海", "location": "号", "img": "", "title": "上海永申园林景观"}
{"city": "上海", "img": "http://img01.zhangtu.com/pic/201509/01/55e55cceb86a4244_t_copy.jpg@1e_200w_140h_1c_0i_1o_75Q_1x.jpg", "title": "上海鲜花港", "url": "http://www.zhangtu.com/shanghai/566a6dc96cf910c86741824.htm", "scenicSpot": "岛 盛彩广场 美丽岛                       ", "location": "东海农场振东路2号(近两港大道)", "ticket": ""}
{"city": "上海", "img": "http://img01.zhangtu.com/pic/201604/08/5707612b7e19d9393246792_t_copy.jpg@1e_200w_140h_1c_0i_1o_75Q_1x.jpg", "title": "上海共青国家森林公园", "url": "http://www.zhangtu.com/shanghai/566a6dc961c2a7o13228037.htm", "scenicSpot": "桥 松涛幽谷 幽篁居 石矶垂钓                       ", "location": "000号", "ticket": ""}
{"city": "上海", "img": "http://img01.zhangtu.com/pic/201612/07/58476f35758594q17524194_t_7189.jpg@1e_200w_140h_1c_0i_1o_75Q_1x.jpg", "title": "上海玻璃博物馆", "url": "http://www.zhangtu.com/shanghai/566a6dc9774b53014490405.htm", "location": "号", "ticket": "童28元"}
{"url": "http://www.zhangtu.com/shanghai/58355e1d12a220z18152339.htm", "city": "上海", "location": "", "img": "", "title": "上海西郊淀山湖湿地"}
{"city": "上海", "img": "", "title": "上海四季百果园念稼樯百艺坊", "url": "http://www.zhangtu.com/shanghai/58355ed8eeff60y41423361.htm", "location": "369号", "ticket": ""}
{"city": "上海", "img": "http://img01.zhangtu.com/pic/201611/28/583bd4b3da4f93t51871423_4393.jpg@1e_200w_140h_1c_0i_1o_75Q_1x.jpg", "title": "上海影视乐园", "url": "http://www.zhangtu.com/shanghai/566a6dc9658513y42847605.htm", "location": "4915号", "ticket": "、中学生：40元、成人：80元"}
{"city": "上海", "img": "http://img01.zhangtu.com/pic/201610/20/58081d31a41120023781765_2476.jpg@1e_200w_140h_1c_0i_1o_75Q_1x.jpg", "title": "上海当代艺术博物馆", "url": "http://www.zhangtu.com/shanghai/566a6dc99eeed2513004017.htm", "location": "号", "ticket": "免费对公众开放"}
{"city": "上海", "img": "http://img01.zhangtu.com/pic/201604/12/570c8be2e510c9k47589341_t_copy.jpg@1e_200w_140h_1c_0i_1o_75Q_1x.jpg", "title": "上海宝山国际民间艺术博览馆", "url": "http://www.zhangtu.com/shanghai/566a702cccdc33h10503688.htm", "location": "太路4788号（近顾村公园一号门）", "ticket": ""}
{"city": "上海", "img": "http://img01.zhangtu.com/pic/201603/31/56fcf401ce8888i75934542_t_copy.jpg@1e_200w_140h_1c_0i_1o_75Q_1x.jpg", "title": "上海东林寺景区", "url": "http://www.zhangtu.com/shanghai/566a702ccf11c1p78125840.htm", "location": "林街150号", "ticket": ""}
{"url": "http://www.zhangtu.com/shanghai/566a6dcb8f5003a28108206.htm", "city": "上海", "location": "凝八路332号", "img": "http://img01.zhangtu.com/pic/201612/06/58466406129d28w27137885_6269.jpg@1e_200w_140h_1c_0i_1o_75Q_1x.jpg", "title": "上海珠溪园"}
{"city": "上海", "img": "http://img01.zhangtu.com/pic/201612/07/584768430d8866331788367_6584.jpg@1e_200w_140h_1c_0i_1o_75Q_1x.jpg", "title": "上海儿童博物馆", "url": "http://www.zhangtu.com/shanghai/566a6dc9adab83910892556.htm", "location": "", "ticket": ""}
{"url": "http://www.zhangtu.com/shanghai/566a6dc9a80803b61785905.htm", "city": "上海", "location": "大厦", "img": "", "title": "上海大自然野生昆虫馆"}
{"url": "http://www.zhangtu.com/jiangsu/566a6df2086b32v94377022.htm", "city": "上海", "location": "路", "img": "http://img01.zhangtu.com/pic/201604/12/570c680aa6eec3y15004023_t_copy.jpg@1e_200w_140h_1c_0i_1o_75Q_1x.jpg", "title": "大丰市上海知青纪念馆"}
{"city": "上海", "img": "http://img01.zhangtu.com/pic/201612/07/5847745dea44d9z53584560_t_7760.jpg@1e_200w_140h_1c_0i_1o_75Q_1x.jpg", "title": "上海纺织博物馆", "url": "http://www.zhangtu.com/shanghai/566a6dcb1c63f1889106653.htm", "location": "150号", "ticket": ""}
{"city": "上海", "img": "http://img01.zhangtu.com/pic/201509/01/55e561b367007689_t_copy.jpg@1e_200w_140h_1c_0i_1o_75Q_1x.jpg", "title": "上海月湖雕塑公园", "url": "http://www.zhangtu.com/shanghai/566a6dc9bc8da1m93639646.htm", "scenicSpot": "上舞台 秋岸                       ", "location": "8号", "ticket": ""}
{"url": "http://www.zhangtu.com/shanghai/566a6dc9ba09c4693009678.htm", "city": "上海", "location": "华镇堡湖路(近三华公路)", "img": "http://img01.zhangtu.com/pic/201509/06/55eb92db811fe166_t_copy.jpg@1e_200w_140h_1c_0i_1o_75Q_1x.jpg", "title": "上海崇明前卫生态村农家乐旅游景区"}
{"city": "上海", "img": "http://img01.zhangtu.com/pic/201612/07/58477071c94f34081557680_t_2846.jpg@1e_200w_140h_1c_0i_1o_75Q_1x.jpg", "title": "上海铁路博物馆", "url": "http://www.zhangtu.com/shanghai/566a6dc9d366d1052532750.htm", "location": "号", "ticket": ""}
{"url": "http://www.zhangtu.com/shanghai/566a6dcd34c1c9x38930518.htm", "city": "上海", "location": "", "img": "http://img01.zhangtu.com/pic/201612/07/584769e9bba8c0b95605795_9301.jpg@1e_200w_140h_1c_0i_1o_75Q_1x.jpg", "title": "上海印刷博物馆"}
{"city": "上海", "img": "http://img01.zhangtu.com/pic/201612/07/584775873097e8q39763509_1447.jpg@1e_200w_140h_1c_0i_1o_75Q_1x.jpg", "title": "上海眼镜博物馆", "url": "http://www.zhangtu.com/shanghai/566a6dcb5de303320950125.htm", "location": "", "ticket": ""}
{"city": "上海", "img": "http://img01.zhangtu.com/pic/201612/07/58476cdf3ec916548634206_7430.jpg@1e_200w_140h_1c_0i_1o_75Q_1x.jpg", "title": "上海电信博物馆", "url": "http://www.zhangtu.com/shanghai/566a6dcd086275g87215571.htm", "location": "", "ticket": ""}
{"city": "上海", "img": "http://img01.zhangtu.com/pic/201607/19/578dca85ef1f81g66764810_t_1858.jpg@1e_200w_140h_1c_0i_1o_75Q_1x.jpg", "title": "上海迪士尼乐园", "url": "http://www.zhangtu.com/shanghai/57622d0886eba9c02551703.htm", "location": "10号", "ticket": "高峰日499元（周六、日，节假日）；儿童(身高1.0米以上至1.4米,含1.4米)、65周岁及以上老年人、残障游客购买门票可享受七五折优惠。身高1.0米及以下的婴幼儿可免票入园。"}
{"city": "上海", "img": "http://img01.zhangtu.com/pic/201509/07/55ed235ad20f7256_t_copy.jpg@1e_200w_140h_1c_0i_1o_75Q_1x.jpg", "title": "上海海洋水族馆", "url": "http://www.zhangtu.com/shanghai/566a702cd9b500c97879124.htm", "location": "88号", "ticket": ""}
{"city": "上海", "img": "http://img01.zhangtu.com/pic/201509/06/55ebafecc0373197_t_copy.jpg@1e_200w_140h_1c_0i_1o_75Q_1x.jpg", "title": "上海方塔园", "url": "http://www.zhangtu.com/shanghai/566a702cd822c1i54928124.htm", "scenicSpot": "园-明代石雕园 方塔园-兰瑞堂 陈化成祠                       ", "location": "东路235号(近方塔南路)"}
{"city": "上海", "img": "http://img01.zhangtu.com/pic/201612/07/58476a5ec84711o40801924_5339.jpg@1e_200w_140h_1c_0i_1o_75Q_1x.jpg", "title": "上海琉璃艺术博物馆", "url": "http://www.zhangtu.com/shanghai/566a6dca20e022q39050278.htm", "location": "", "ticket": ""}
{"city": "上海", "img": "http://img01.zhangtu.com/pic/201612/07/584768d4ce9df4942646954_t_5783.jpg@1e_200w_140h_1c_0i_1o_75Q_1x.jpg", "title": "上海邮政博物馆", "url": "http://www.zhangtu.com/shanghai/566a6dc9ce41f5y10629438.htm", "location": "", "ticket": ""}
{"city": "上海", "img": "http://img01.zhangtu.com/pic/201612/07/58477734037785x28599772_t_2726.jpg@1e_200w_140h_1c_0i_1o_75Q_1x.jpg", "title": "上海笔墨博物馆", "url": "http://www.zhangtu.com/shanghai/566a6dcd226992d12650500.htm", "location": "", "ticket": ""}
{"url": "http://www.zhangtu.com/shanghai/566a6dccdabcc5a78802539.htm", "city": "上海", "location": "华尔道夫酒店", "img": "", "title": "上海总会"}
{"url": "http://www.zhangtu.com/shanghai/566a6dccce8bb9322521887.htm", "city": "上海", "location": "号2层", "img": "", "title": "上海老茶馆"}
{"city": "上海", "img": "http://img01.zhangtu.com/pic/201612/07/5847695238caf9775392281_6459.jpg@1e_200w_140h_1c_0i_1o_75Q_1x.jpg", "title": "上海动漫博物馆", "url": "http://www.zhangtu.com/shanghai/566a6dcb3b3e36672435457.htm", "location": "", "ticket": ""}
{"city": "上海", "img": "http://img01.zhangtu.com/pic/201604/11/570b7042142da6i07820317_t_copy.jpg@1e_200w_140h_1c_0i_1o_75Q_1x.jpg", "title": "上海都市菜园", "url": "http://www.zhangtu.com/shanghai/566a702ccffb78f16715734.htm", "scenicSpot": "菜园桥                       ", "location": "湾镇海兴路888弄1号", "ticket": ""}
{"city": "上海", "img": "http://img01.zhangtu.com/pic/201610/20/5808254872fdf9c80090675_2408.jpg@1e_200w_140h_1c_0i_1o_75Q_1x.jpg", "title": "上海鲁迅公园", "url": "http://www.zhangtu.com/shanghai/56529072d5d465801254128.htm", "location": "8号", "ticket": ""}
{"city": "上海", "img": "http://img01.zhangtu.com/pic/201610/20/58081b3a9e2629a22890879_4065.jpg@1e_200w_140h_1c_0i_1o_75Q_1x.jpg", "title": "上海犹太难民纪念馆", "url": "http://www.zhangtu.com/shanghai/56528fba396271t46355271.htm", "location": "近舟山路)", "ticket": ""}
{"city": "上海", "img": "http://img01.zhangtu.com/pic/201612/07/58477159b29cd7b65576179_1742.jpg@1e_200w_140h_1c_0i_1o_75Q_1x.jpg", "title": "上海公安博物馆", "url": "http://www.zhangtu.com/shanghai/566a6dca9c01d4121366413.htm", "location": "", "ticket": ""}
{"city": "上海", "img": "http://img01.zhangtu.com/pic/201612/07/58476bba842a80g95296968_1607.jpeg@1e_200w_140h_1c_0i_1o_75Q_1x.jpg", "title": "上海消防博物馆", "url": "http://www.zhangtu.com/shanghai/566a6dcab2cf89m95764837.htm", "location": "号", "ticket": ""}
{"url": "http://www.zhangtu.com/xizang/566a70150252d3z65555272.htm", "city": "上海", "location": "米", "img": "", "title": "江孜上海公园"}
{"url": "http://www.zhangtu.com/xizang/566a7014e0fee0s08774334.htm", "city": "上海", "location": "0米", "img": "", "title": "西藏自治区拉孜上海人民广场"}
{"city": "上海", "img": "", "title": "上海三观堂", "url": "http://www.zhangtu.com/shanghai/566a6dcb425ce5172002045.htm", "location": "", "ticket": ""}
{"url": "http://www.zhangtu.com/shanghai/5754e2cc33b067v00241072.htm", "city": "上海", "scenicSpot": "徐家汇观象台 圣母院旧址 徐家汇天主堂                       ", "img": "http://img01.zhangtu.com/pic/201606/07/5756259a450029018775559_t_6010.jpg@1e_200w_140h_1c_0i_1o_75Q_1x.jpg", "title": "上海徐家汇景区"}
{"city": "上海", "img": "http://img01.zhangtu.com/pic/201610/20/58084a5e5b5d68e44344681_9668.jpg@1e_200w_140h_1c_0i_1o_75Q_1x.jpg", "title": "上海人然合一现代农业生态园", "url": "http://www.zhangtu.com/shanghai/56528f431b9e57a15417479.htm", "location": "98号(奥特莱斯往西800米)", "ticket": ""}
{"city": "上海", "img": "http://img01.zhangtu.com/pic/201612/07/584777d6c75f71503262053_t_9074.jpg@1e_200w_140h_1c_0i_1o_75Q_1x.jpg", "title": "上海中医药博物馆", "url": "http://www.zhangtu.com/shanghai/56527b6017e413d25728027.htm", "location": "号", "ticket": ""}
{"city": "上海", "img": "", "title": "上海古城墙", "url": "http://www.zhangtu.com/shanghai/566a6dcaa11f87887226914.htm", "location": "69号", "ticket": ""}
{"url": "http://www.zhangtu.com/shanghai/566a6dca27be61i74485845.htm", "city": "上海", "location": "弄5-9号", "img": "", "title": "上海毛泽东旧居(装修中)"}
{"url": "http://www.zhangtu.com/shanghai/566a6dca55cd43162669895.htm", "city": "上海", "location": "", "img": "", "title": "上海地质科普馆"}
{"city": "上海", "img": "", "title": "上海瑞昌成总号营口分号旧址", "url": "http://www.zhangtu.com/liaoning/566a6f0959d868o24025888.htm", "location": "", "ticket": ""}
{"url": "http://www.zhangtu.com/shanghai/5707564f877c12224690172.htm", "city": "上海", "location": "号", "img": "", "title": "工银中心上海世博展览馆"}
{"city": "上海", "img": "http://img01.zhangtu.com/pic/201611/28/583bd218cb2b25r39075835_6094.jpg@1e_200w_140h_1c_0i_1o_75Q_1x.jpg", "title": "上海人民广场", "url": "http://www.zhangtu.com/shanghai/583514b84497d0y73035766.htm", "location": "号", "ticket": ""}
{"url": "http://www.zhangtu.com/shanghai/57049f8d783816z90748619.htm", "city": "上海", "location": "-3层", "img": "", "title": "上海四行仓库抗战纪念馆"}
{"city": "上海", "img": "", "title": "上海文化广场", "url": "http://www.zhangtu.com/shanghai/5835154e30d9d4f01459278.htm", "location": "号", "ticket": ""}
{"url": "http://www.zhangtu.com/shanghai/566a6dca68b623g14734553.htm", "city": "上海", "location": "号", "img": "", "title": "上海财神庙"}
{"city": "上海", "img": "", "title": "上海钦赐仰殿道观", "url": "http://www.zhangtu.com/shanghai/566a6dca774fd5m77243592.htm", "location": "(近张杨路)", "ticket": ""}
{"city": "上海", "img": "http://img01.zhangtu.com/pic/201612/07/58476283cbc797c18312237_t_8838.jpg@1e_200w_140h_1c_0i_1o_75Q_1x.jpg", "title": "上海自然博物馆", "url": "http://www.zhangtu.com/shanghai/566a6dca2edfa3q73606848.htm", "location": "号", "ticket": "童12元，老年25元"}
{"url": "http://www.zhangtu.com/shanghai/566a6dcb0b54d3127837274.htm", "city": "上海", "location": "0米", "img": "", "title": "上海国际旅游度假区"}
{"city": "上海", "img": "", "title": "上海文庙", "url": "http://www.zhangtu.com/shanghai/5835157cc34e26p65723132.htm", "location": "(近学前街)", "ticket": ""}
{"url": "http://www.zhangtu.com/neimenggu/582ad5dd9c5f43c63469788.htm", "city": "上海", "location": "", "img": "", "title": "上海庙欢乐大草原"}
{"url": "http://www.zhangtu.com/shanghai/5835146332afa7505181099.htm", "city": "上海", "location": "3号海上海商业广场内(近大连路)", "img": "", "title": "海上海·弘基休闲广场"}
{"city": "上海", "img": "", "title": "上海孙中山故居纪念馆", "url": "http://www.zhangtu.com/shanghai/566a6dc9bf32a6874818262.htm", "location": "", "ticket": ""}
{"city": "上海", "img": "", "title": "上海黄浦江水文化博物园", "url": "http://www.zhangtu.com/shanghai/566a6dca38e6c9d91640701.htm", "location": "8号(近仙鹤路)", "ticket": ""}
